{"type":"FeatureCollection", "features": [
{"type":"Feature","geometry":{"type":"Point","coordinates":[83.46983303509937,20.977908134460446]},"properties":{"id":43,"block_name":"Agalpur","DIST_NAME":"BALANGIR"}},
{"type":"Feature","geometry":{"type":"Point","coordinates":[83.5362176055617,21.60588645935059]},"properties":{"id":21,"block_name":"Ambabhona","DIST_NAME":"BARAGARH"}},
{"type":"Feature","geometry":{"type":"Point","coordinates":[86.06297424474123,21.38243103027343]},"properties":{"id":175,"block_name":"Anandapur","DIST_NAME":"KEONJHAR"}},
{"type":"Feature","geometry":{"type":"Point","coordinates":[84.91938288740525,20.691282272338842]},"properties":{"id":1,"block_name":"Angul","DIST_NAME":"ANGUL"}},
{"type":"Feature","geometry":{"type":"Point","coordinates":[84.65533140325257,19.661446571350083]},"properties":{"id":107,"block_name":"Aska","DIST_NAME":"GANJAM"}},
{"type":"Feature","geometry":{"type":"Point","coordinates":[86.27755224745061,19.973453521728537]},"properties":{"id":261,"block_name":"Astaranga","DIST_NAME":"PURI"}},
{"type":"Feature","geometry":{"type":"Point","coordinates":[85.75732235111172,20.554287910461426]},"properties":{"id":57,"block_name":"Athagad","DIST_NAME":"CUTTACK"}},
{"type":"Feature","geometry":{"type":"Point","coordinates":[84.55814144216416,20.783702850341783]},"properties":{"id":6,"block_name":"Athmallik","DIST_NAME":"ANGUL"}},
{"type":"Feature","geometry":{"type":"Point","coordinates":[83.76673963398869,21.450900077819792]},"properties":{"id":22,"block_name":"Attabira","DIST_NAME":"BARAGARH"}},
{"type":"Feature","geometry":{"type":"Point","coordinates":[86.61016549437122,20.642008781433088]},"properties":{"id":165,"block_name":"Ali","DIST_NAME":"KENDRAPARA"}},
{"type":"Feature","geometry":{"type":"Point","coordinates":[86.15745640756063,20.661340713500998]},"properties":{"id":127,"block_name":"Badachana","DIST_NAME":"JAJPUR"}},
{"type":"Feature","geometry":{"type":"Point","coordinates":[85.34256210221479,20.43632888793944]},"properties":{"id":60,"block_name":"Badamba","DIST_NAME":"CUTTACK"}},
{"type":"Feature","geometry":{"type":"Point","coordinates":[86.1481936335752,22.39441108703612]},"properties":{"id":231,"block_name":"Bahalda","DIST_NAME":"MAYURBHANJ"}},
{"type":"Feature","geometry":{"type":"Point","coordinates":[86.7993923619463,21.314342498779297]},"properties":{"id":17,"block_name":"Bahanaga","DIST_NAME":"BALESWAR"}},
{"type":"Feature","geometry":{"type":"Point","coordinates":[83.38844438059225,20.71650791168213]},"properties":{"id":40,"block_name":"Balangir","DIST_NAME":"BALANGIR"}},
{"type":"Feature","geometry":{"type":"Point","coordinates":[87.00803206857735,21.49115753173828]},"properties":{"id":13,"block_name":"Baleswar","DIST_NAME":"BALESWAR"}},
{"type":"Feature","geometry":{"type":"Point","coordinates":[87.25266552912342,21.618536949157708]},"properties":{"id":12,"block_name":"Baliapal","DIST_NAME":"BALESWAR"}},
{"type":"Feature","geometry":{"type":"Point","coordinates":[83.85574180742296,20.225154876708984]},"properties":{"id":147,"block_name":"Baliguda","DIST_NAME":"KANDHAMAL"}},
{"type":"Feature","geometry":{"type":"Point","coordinates":[86.31497687941996,20.09076404571534]},"properties":{"id":114,"block_name":"Balikuda","DIST_NAME":"JAGATSINGHPUR"}},
{"type":"Feature","geometry":{"type":"Point","coordinates":[84.05580846263356,22.35828971862789]},"properties":{"id":304,"block_name":"Balisankara","DIST_NAME":"SUNDARGARH"}},
{"type":"Feature","geometry":{"type":"Point","coordinates":[84.45081017143934,22.00039291381838]},"properties":{"id":289,"block_name":"Bamra","DIST_NAME":"SAMBALPUR"}},
{"type":"Feature","geometry":{"type":"Point","coordinates":[85.19418588317642,20.792860031127915]},"properties":{"id":2,"block_name":"Banarpal","DIST_NAME":"ANGUL"}},
{"type":"Feature","geometry":{"type":"Point","coordinates":[83.2688001522679,18.960342407226562]},"properties":{"id":194,"block_name":"Bandhugaon","DIST_NAME":"KORAPUT"}},
{"type":"Feature","geometry":{"type":"Point","coordinates":[84.84675174561622,21.733109474182157]},"properties":{"id":311,"block_name":"Banei","DIST_NAME":"SUNDARGARH"}},
{"type":"Feature","geometry":{"type":"Point","coordinates":[86.4135463168951,22.04841423034666]},"properties":{"id":220,"block_name":"Bangiriposhi","DIST_NAME":"MAYURBHANJ"}},
{"type":"Feature","geometry":{"type":"Point","coordinates":[82.93509756150794,20.284186363220194]},"properties":{"id":51,"block_name":"Bangomunda","DIST_NAME":"BALANGIR"}},
{"type":"Feature","geometry":{"type":"Point","coordinates":[85.4196651128584,20.31798744201664]},"properties":{"id":88,"block_name":"Banki","DIST_NAME":"CUTTACK"}},
{"type":"Feature","geometry":{"type":"Point","coordinates":[85.61249124669041,20.37423229217529]},"properties":{"id":58,"block_name":"Banki-Dampara","DIST_NAME":"CUTTACK"}},
{"type":"Feature","geometry":{"type":"Point","coordinates":[85.4437088418677,21.599488258361788]},"properties":{"id":169,"block_name":"Banspal","DIST_NAME":"KEONJHAR"}},
{"type":"Feature","geometry":{"type":"Point","coordinates":[86.35663611824091,21.11325550079347]},"properties":{"id":36,"block_name":"Bonth","DIST_NAME":"BHADRAK"}},
{"type":"Feature","geometry":{"type":"Point","coordinates":[84.26739599773614,22.216540336608883]},"properties":{"id":303,"block_name":"Baragaon","DIST_NAME":"SUNDARGARH"}},
{"type":"Feature","geometry":{"type":"Point","coordinates":[83.6287709316149,21.328133583068833]},"properties":{"id":23,"block_name":"Baragarh","DIST_NAME":"BARAGARH"}},
{"type":"Feature","geometry":{"type":"Point","coordinates":[85.95659202303719,20.319250106811538]},"properties":{"id":59,"block_name":"Barang","DIST_NAME":"CUTTACK"}},
{"type":"Feature","geometry":{"type":"Point","coordinates":[83.60938001267148,21.16026115417479]},"properties":{"id":24,"block_name":"Barapali","DIST_NAME":"BARAGARH"}},
{"type":"Feature","geometry":{"type":"Point","coordinates":[86.34447920727115,20.67822360992432]},"properties":{"id":128,"block_name":"Bari","DIST_NAME":"JAJPUR"}},
{"type":"Feature","geometry":{"type":"Point","coordinates":[86.76929397470136,21.87925720214844]},"properties":{"id":221,"block_name":"Baripada","DIST_NAME":"MAYURBHANJ"}},
{"type":"Feature","geometry":{"type":"Point","coordinates":[84.99650588253427,21.487670898437496]},"properties":{"id":70,"block_name":"Barkot","DIST_NAME":"DEOGARH"}},
{"type":"Feature","geometry":{"type":"Point","coordinates":[86.75199710621553,21.73834800720215]},"properties":{"id":213,"block_name":"Barsahi","DIST_NAME":"MAYURBHANJ"}},
{"type":"Feature","geometry":{"type":"Point","coordinates":[87.13064089509629,21.69301986694333]},"properties":{"id":10,"block_name":"Basta","DIST_NAME":"BALESWAR"}},
{"type":"Feature","geometry":{"type":"Point","coordinates":[86.75881093249453,21.08964347839354]},"properties":{"id":35,"block_name":"Basudebpur","DIST_NAME":"BHADRAK"}},
{"type":"Feature","geometry":{"type":"Point","coordinates":[84.62288495713446,19.84417533874509]},"properties":{"id":104,"block_name":"Bellaguntha","DIST_NAME":"GANJAM"}},
{"type":"Feature","geometry":{"type":"Point","coordinates":[82.94443455502476,20.61645889282228]},"properties":{"id":47,"block_name":"Belpara","DIST_NAME":"BALANGIR"}},
{"type":"Feature","geometry":{"type":"Point","coordinates":[86.92907489643548,21.68928813934329]},"properties":{"id":214,"block_name":"Betanati","DIST_NAME":"MAYURBHANJ"}},
{"type":"Feature","geometry":{"type":"Point","coordinates":[86.535348375773,21.064591407775872]},"properties":{"id":33,"block_name":"Bhadrak","DIST_NAME":"BHADRAK"}},
{"type":"Feature","geometry":{"type":"Point","coordinates":[86.35706764882481,20.954200744628917]},"properties":{"id":34,"block_name":"Bhandaripokhari","DIST_NAME":"BHADRAK"}},
{"type":"Feature","geometry":{"type":"Point","coordinates":[84.5032856153405,20.020066261291483]},"properties":{"id":103,"block_name":"Bhanjanagar","DIST_NAME":"GANJAM"}},
{"type":"Feature","geometry":{"type":"Point","coordinates":[85.28618643180883,20.290871620178255]},"properties":{"id":248,"block_name":"Bhapur","DIST_NAME":"NAYAGARH"}},
{"type":"Feature","geometry":{"type":"Point","coordinates":[83.50304935632818,21.4633445739746]},"properties":{"id":25,"block_name":"Bhatli","DIST_NAME":"BARAGARH"}},
{"type":"Feature","geometry":{"type":"Point","coordinates":[83.12766890028506,19.943965911865238]},"properties":{"id":134,"block_name":"Bhawanipatna","DIST_NAME":"KALAHANDI"}},
{"type":"Feature","geometry":{"type":"Point","coordinates":[83.79730515968143,21.198157310485833]},"properties":{"id":26,"block_name":"Bheden","DIST_NAME":"BARAGARH"}},
{"type":"Feature","geometry":{"type":"Point","coordinates":[87.39093403857038,21.67093181610106]},"properties":{"id":9,"block_name":"Bhograi","DIST_NAME":"BALESWAR"}},
{"type":"Feature","geometry":{"type":"Point","coordinates":[85.79413983626503,20.9051055908203]},"properties":{"id":78,"block_name":"Bhuban","DIST_NAME":"DHENKANAL"}},
{"type":"Feature","geometry":{"type":"Point","coordinates":[86.31161055008619,22.252472877502463]},"properties":{"id":227,"block_name":"Bijatola","DIST_NAME":"MAYURBHANJ"}},
{"type":"Feature","geometry":{"type":"Point","coordinates":[83.42459940048754,21.131977081298807]},"properties":{"id":27,"block_name":"Bijepur","DIST_NAME":"BARAGARH"}},
{"type":"Feature","geometry":{"type":"Point","coordinates":[83.7666752760467,21.025371551513665]},"properties":{"id":293,"block_name":"Binika","DIST_NAME":"SONEPUR"}},
{"type":"Feature","geometry":{"type":"Point","coordinates":[86.4611432002141,20.73472785949705]},"properties":{"id":120,"block_name":"Binjharpur","DIST_NAME":"JAJPUR"}},
{"type":"Feature","geometry":{"type":"Point","coordinates":[84.1308901244955,20.939453125]},"properties":{"id":296,"block_name":"Biramaharajpur","DIST_NAME":"SONEPUR"}},
{"type":"Feature","geometry":{"type":"Point","coordinates":[86.07022309227109,20.324294090270982]},"properties":{"id":112,"block_name":"Biridi","DIST_NAME":"JAGATSINGHPUR"}},
{"type":"Feature","geometry":{"type":"Point","coordinates":[86.26189246554088,22.11028289794922]},"properties":{"id":226,"block_name":"Bisoi","DIST_NAME":"MAYURBHANJ"}},
{"type":"Feature","geometry":{"type":"Point","coordinates":[84.98771580423063,22.261892318725565]},"properties":{"id":309,"block_name":"Bisra","DIST_NAME":"SUNDARGARH"}},
{"type":"Feature","geometry":{"type":"Point","coordinates":[83.55537276761903,19.46562385559084]},"properties":{"id":280,"block_name":"Bissam Cuttack","DIST_NAME":"RAYAGADA"}},
{"type":"Feature","geometry":{"type":"Point","coordinates":[82.53708025409418,20.28437042236332]},"properties":{"id":256,"block_name":"Boden","DIST_NAME":"NUAPADA"}},
{"type":"Feature","geometry":{"type":"Point","coordinates":[82.33007493802965,18.74818134307862]},"properties":{"id":204,"block_name":"Boipariguda","DIST_NAME":"KORAPUT"}},
{"type":"Feature","geometry":{"type":"Point","coordinates":[82.61048550303897,19.091866493225133]},"properties":{"id":203,"block_name":"Boriguma","DIST_NAME":"KORAPUT"}},
{"type":"Feature","geometry":{"type":"Point","coordinates":[84.13336480687532,20.732181549072273]},"properties":{"id":54,"block_name":"Boudh","DIST_NAME":"BOUDH"}},
{"type":"Feature","geometry":{"type":"Point","coordinates":[85.66986871481251,19.821602821350073]},"properties":{"id":262,"block_name":"Bramhagiri","DIST_NAME":"PURI"}},
{"type":"Feature","geometry":{"type":"Point","coordinates":[84.81159208027324,19.833280563354485]},"properties":{"id":106,"block_name":"Buguda","DIST_NAME":"GANJAM"}},
{"type":"Feature","geometry":{"type":"Point","coordinates":[84.48508842191447,20.264755249023416]},"properties":{"id":148,"block_name":"Chakapad","DIST_NAME":"KANDHAMAL"}},
{"type":"Feature","geometry":{"type":"Point","coordinates":[85.67504955371797,21.960797309875517]},"properties":{"id":178,"block_name":"Champua","DIST_NAME":"KEONJHAR"}},
{"type":"Feature","geometry":{"type":"Point","coordinates":[86.81878744473494,20.85186672210692]},"properties":{"id":37,"block_name":"Chandabali","DIST_NAME":"BHADRAK"}},
{"type":"Feature","geometry":{"type":"Point","coordinates":[82.50444903957379,19.827325820922894]},"properties":{"id":247,"block_name":"Chandahandi","DIST_NAME":"NAWARANGAPUR"}},
{"type":"Feature","geometry":{"type":"Point","coordinates":[83.77109767682495,19.56525039672851]},"properties":{"id":282,"block_name":"Chandrapur","DIST_NAME":"RAYAGADA"}},
{"type":"Feature","geometry":{"type":"Point","coordinates":[84.93148924038454,19.38014125823976]},"properties":{"id":89,"block_name":"Chhatrapur","DIST_NAME":"GANJAM"}},
{"type":"Feature","geometry":{"type":"Point","coordinates":[84.89350064224821,20.995819091796875]},"properties":{"id":3,"block_name":"Chhendipada","DIST_NAME":"ANGUL"}},
{"type":"Feature","geometry":{"type":"Point","coordinates":[84.66869895849226,19.16993808746338]},"properties":{"id":99,"block_name":"Chikiti","DIST_NAME":"GANJAM"}},
{"type":"Feature","geometry":{"type":"Point","coordinates":[85.98197277775151,20.42875766754152]},"properties":{"id":61,"block_name":"Cuttack Sadar","DIST_NAME":"CUTTACK"}},
{"type":"Feature","geometry":{"type":"Point","coordinates":[82.32348627165771,19.474976539611824]},"properties":{"id":243,"block_name":"Dabugan","DIST_NAME":"NAWARANGAPUR"}},
{"type":"Feature","geometry":{"type":"Point","coordinates":[85.99592129373471,21.023128509521474]},"properties":{"id":123,"block_name":"Danagadi","DIST_NAME":"JAJPUR"}},
{"type":"Feature","geometry":{"type":"Point","coordinates":[84.07446508171144,19.824770927429192]},"properties":{"id":149,"block_name":"Daringbadi","DIST_NAME":"KANDHAMAL"}},
{"type":"Feature","geometry":{"type":"Point","coordinates":[82.82949323233731,18.988287925720194]},"properties":{"id":196,"block_name":"Dasamantapur","DIST_NAME":"KORAPUT"}},
{"type":"Feature","geometry":{"type":"Point","coordinates":[84.73419313945072,20.314486503601074]},"properties":{"id":249,"block_name":"Dasapalla","DIST_NAME":"NAYAGARH"}},
{"type":"Feature","geometry":{"type":"Point","coordinates":[86.47769183623484,20.80974388122562]},"properties":{"id":121,"block_name":"Dasarathpur","DIST_NAME":"JAJPUR"}},
{"type":"Feature","geometry":{"type":"Point","coordinates":[85.74400319903037,20.050000190734877]},"properties":{"id":263,"block_name":"Delanga","DIST_NAME":"PURI"}},
{"type":"Feature","geometry":{"type":"Point","coordinates":[83.48906652767928,20.579220771789586]},"properties":{"id":44,"block_name":"Deogaon","DIST_NAME":"BALANGIR"}},
{"type":"Feature","geometry":{"type":"Point","coordinates":[86.33538930588412,20.53041362762448]},"properties":{"id":160,"block_name":"Derabisi","DIST_NAME":"KENDRAPARA"}},
{"type":"Feature","geometry":{"type":"Point","coordinates":[86.50737459986662,20.915863990783727]},"properties":{"id":38,"block_name":"Dhamanagar","DIST_NAME":"BHADRAK"}},
{"type":"Feature","geometry":{"type":"Point","coordinates":[83.94442016814675,21.44318389892578]},"properties":{"id":284,"block_name":"Dhankauda","DIST_NAME":"SAMBALPUR"}},
{"type":"Feature","geometry":{"type":"Point","coordinates":[84.52979235260358,19.625013351440394]},"properties":{"id":108,"block_name":"Dharakote","DIST_NAME":"GANJAM"}},
{"type":"Feature","geometry":{"type":"Point","coordinates":[82.77679911841079,19.839223861694357]},"properties":{"id":141,"block_name":"Dharamgarh","DIST_NAME":"KALAHANDI"}},
{"type":"Feature","geometry":{"type":"Point","coordinates":[86.11775767078714,20.775465965270968]},"properties":{"id":126,"block_name":"Dharmasala","DIST_NAME":"JAJPUR"}},
{"type":"Feature","geometry":{"type":"Point","coordinates":[85.64267632279503,20.65229415893554]},"properties":{"id":73,"block_name":"Dhenkanal","DIST_NAME":"DHENKANAL"}},
{"type":"Feature","geometry":{"type":"Point","coordinates":[84.54489665355499,19.304725646972667]},"properties":{"id":102,"block_name":"Digapahandi","DIST_NAME":"GANJAM"}},
{"type":"Feature","geometry":{"type":"Point","coordinates":[83.59536288742258,21.051624298095717]},"properties":{"id":295,"block_name":"Dunguripali","DIST_NAME":"SONEPUR"}},
{"type":"Feature","geometry":{"type":"Point","coordinates":[86.41977504376979,20.16385936737061]},"properties":{"id":118,"block_name":"Ersama","DIST_NAME":"JAGATSINGHPUR"}},
{"type":"Feature","geometry":{"type":"Point","coordinates":[84.37697694610212,20.127116203308084]},"properties":{"id":150,"block_name":"G. Udayagiri","DIST_NAME":"KANDHAMAL"}},
{"type":"Feature","geometry":{"type":"Point","coordinates":[83.27382240619633,20.98443317413329]},"properties":{"id":28,"block_name":"Gaisilet","DIST_NAME":"BARAGARH"}},
{"type":"Feature","geometry":{"type":"Point","coordinates":[85.85355114114697,20.756482124328627]},"properties":{"id":74,"block_name":"Gandia","DIST_NAME":"DHENKANAL"}},
{"type":"Feature","geometry":{"type":"Point","coordinates":[84.84644784330877,20.458059310913058]},"properties":{"id":250,"block_name":"Gania","DIST_NAME":"NAYAGARH"}},
{"type":"Feature","geometry":{"type":"Point","coordinates":[85.06554000442092,19.45382213592527]},"properties":{"id":90,"block_name":"Ganjam","DIST_NAME":"GANJAM"}},
{"type":"Feature","geometry":{"type":"Point","coordinates":[86.33602043049777,20.40926933288575]},"properties":{"id":163,"block_name":"Garadpur","DIST_NAME":"KENDRAPARA"}},
{"type":"Feature","geometry":{"type":"Point","coordinates":[86.00416573129903,21.164708137512225]},"properties":{"id":176,"block_name":"Ghasipura","DIST_NAME":"KEONJHAR"}},
{"type":"Feature","geometry":{"type":"Point","coordinates":[85.80949623367083,21.4777927398682]},"properties":{"id":173,"block_name":"Ghatgaon","DIST_NAME":"KEONJHAR"}},
{"type":"Feature","geometry":{"type":"Point","coordinates":[82.90200120722551,20.04408454895018]},"properties":{"id":146,"block_name":"Golamunda","DIST_NAME":"KALAHANDI"}},
{"type":"Feature","geometry":{"type":"Point","coordinates":[86.04323243942301,19.933156967163104]},"properties":{"id":264,"block_name":"Gop","DIST_NAME":"PURI"}},
{"type":"Feature","geometry":{"type":"Point","coordinates":[86.67876393870775,21.663361549377438]},"properties":{"id":223,"block_name":"Gopabandhunagar","DIST_NAME":"MAYURBHANJ"}},
{"type":"Feature","geometry":{"type":"Point","coordinates":[83.78443283965622,19.390569686889627]},"properties":{"id":278,"block_name":"Gudari","DIST_NAME":"RAYAGADA"}},
{"type":"Feature","geometry":{"type":"Point","coordinates":[83.56457520286713,20.444102287292488]},"properties":{"id":42,"block_name":"Gudvela","DIST_NAME":"BALANGIR"}},
{"type":"Feature","geometry":{"type":"Point","coordinates":[84.07963703743616,18.91515636444091]},"properties":{"id":84,"block_name":"Gumma","DIST_NAME":"GAJAPATI"}},
{"type":"Feature","geometry":{"type":"Point","coordinates":[83.8737418311753,19.077278137207045]},"properties":{"id":276,"block_name":"Gunupur","DIST_NAME":"RAYAGADA"}},
{"type":"Feature","geometry":{"type":"Point","coordinates":[84.69439551888442,21.92546653747555]},"properties":{"id":313,"block_name":"Gurundia","DIST_NAME":"SUNDARGARH"}},
{"type":"Feature","geometry":{"type":"Point","coordinates":[84.51540229981205,20.620176315307628]},"properties":{"id":56,"block_name":"Harbhanga","DIST_NAME":"BOUDH"}},
{"type":"Feature","geometry":{"type":"Point","coordinates":[85.74480360258863,21.331034660339377]},"properties":{"id":174,"block_name":"Harichandanpur","DIST_NAME":"KEONJHAR"}},
{"type":"Feature","geometry":{"type":"Point","coordinates":[86.269121894997,21.198936462402376]},"properties":{"id":177,"block_name":"Hatadihi","DIST_NAME":"KEONJHAR"}},
{"type":"Feature","geometry":{"type":"Point","coordinates":[83.7044960874341,21.971075057983384]},"properties":{"id":298,"block_name":"Hemgiri","DIST_NAME":"SUNDARGARH"}},
{"type":"Feature","geometry":{"type":"Point","coordinates":[85.29722882330607,20.643221855163574]},"properties":{"id":76,"block_name":"Hindol","DIST_NAME":"DHENKANAL"}},
{"type":"Feature","geometry":{"type":"Point","coordinates":[84.78245894023348,19.44607448577881]},"properties":{"id":96,"block_name":"Hinjilicut","DIST_NAME":"GANJAM"}},
{"type":"Feature","geometry":{"type":"Point","coordinates":[84.72547591678682,20.068941116333008]},"properties":{"id":105,"block_name":"Jagannathprasad","DIST_NAME":"GANJAM"}},
{"type":"Feature","geometry":{"type":"Point","coordinates":[86.16607812220948,20.24312973022461]},"properties":{"id":111,"block_name":"Jagatsinghapur (P)","DIST_NAME":"JAGATSINGHPUR"}},
{"type":"Feature","geometry":{"type":"Point","coordinates":[86.29344204855231,20.83021831512454]},"properties":{"id":119,"block_name":"Jajapur","DIST_NAME":"JAJPUR"}},
{"type":"Feature","geometry":{"type":"Point","coordinates":[87.21453967465547,21.825391769409155]},"properties":{"id":11,"block_name":"Jaleswar","DIST_NAME":"BALESWAR"}},
{"type":"Feature","geometry":{"type":"Point","coordinates":[84.36136954148208,21.536850929260247]},"properties":{"id":288,"block_name":"Jamankira","DIST_NAME":"SAMBALPUR"}},
{"type":"Feature","geometry":{"type":"Point","coordinates":[86.06500578022664,22.292677879333482]},"properties":{"id":230,"block_name":"Jamda","DIST_NAME":"MAYURBHANJ"}},
{"type":"Feature","geometry":{"type":"Point","coordinates":[86.15009177440979,21.938909530639652]},"properties":{"id":233,"block_name":"Jashipur","DIST_NAME":"MAYURBHANJ"}},
{"type":"Feature","geometry":{"type":"Point","coordinates":[82.74839584043849,19.528391838073745]},"properties":{"id":144,"block_name":"Jayapatna","DIST_NAME":"KALAHANDI"}},
{"type":"Feature","geometry":{"type":"Point","coordinates":[82.55929515692011,18.896560668945284]},"properties":{"id":200,"block_name":"Jeypore","DIST_NAME":"KORAPUT"}},
{"type":"Feature","geometry":{"type":"Point","coordinates":[82.79600722894939,21.082020759582534]},"properties":{"id":29,"block_name":"Jharbandha","DIST_NAME":"BARAGARH"}},
{"type":"Feature","geometry":{"type":"Point","coordinates":[82.42261685057737,19.677571296691887]},"properties":{"id":246,"block_name":"Jharigan","DIST_NAME":"NAWARANGAPUR"}},
{"type":"Feature","geometry":{"type":"Point","coordinates":[83.98102111374092,21.839162826538097]},"properties":{"id":129,"block_name":"Jharsuguda","DIST_NAME":"JHARSUGUDA"}},
{"type":"Feature","geometry":{"type":"Point","coordinates":[85.56712777575294,21.8612661361694]},"properties":{"id":180,"block_name":"Jhumpura","DIST_NAME":"KEONJHAR"}},
{"type":"Feature","geometry":{"type":"Point","coordinates":[85.36777136236873,21.978078842163107]},"properties":{"id":179,"block_name":"Joda","DIST_NAME":"KEONJHAR"}},
{"type":"Feature","geometry":{"type":"Point","coordinates":[84.18217385179804,21.336856842040977]},"properties":{"id":283,"block_name":"Jujomura","DIST_NAME":"SAMBALPUR"}},
{"type":"Feature","geometry":{"type":"Point","coordinates":[82.94586786931873,19.811311721801765]},"properties":{"id":142,"block_name":"Junagarh","DIST_NAME":"KALAHANDI"}},
{"type":"Feature","geometry":{"type":"Point","coordinates":[84.05190287512296,20.140980720519988]},"properties":{"id":153,"block_name":"K.Nuagaon","DIST_NAME":"KANDHAMAL"}},
{"type":"Feature","geometry":{"type":"Point","coordinates":[84.81094461852746,19.606923103332534]},"properties":{"id":92,"block_name":"Kabisuryanagar","DIST_NAME":"GANJAM"}},
{"type":"Feature","geometry":{"type":"Point","coordinates":[86.16945144772744,19.960186004638683]},"properties":{"id":265,"block_name":"Kakatpur","DIST_NAME":"PURI"}},
{"type":"Feature","geometry":{"type":"Point","coordinates":[82.87509233043356,19.605098724365256]},"properties":{"id":143,"block_name":"Kalampur","DIST_NAME":"KALAHANDI"}},
{"type":"Feature","geometry":{"type":"Point","coordinates":[81.80145892318413,18.023632049560536]},"properties":{"id":210,"block_name":"Kalimela","DIST_NAME":"MALKANGIRI"}},
{"type":"Feature","geometry":{"type":"Point","coordinates":[83.3237934510466,19.44408321380612]},"properties":{"id":274,"block_name":"Kalyanasingpur","DIST_NAME":"RAYAGADA"}},
{"type":"Feature","geometry":{"type":"Point","coordinates":[85.55505328931307,20.859958648681676]},"properties":{"id":77,"block_name":"Kamakhyanagar","DIST_NAME":"DHENKANAL"}},
{"type":"Feature","geometry":{"type":"Point","coordinates":[85.627432779278,19.981598854064934]},"properties":{"id":266,"block_name":"Kanas","DIST_NAME":"PURI"}},
{"type":"Feature","geometry":{"type":"Point","coordinates":[85.12680754296053,21.142243385314956]},"properties":{"id":5,"block_name":"Kaniha","DIST_NAME":"ANGUL"}},
{"type":"Feature","geometry":{"type":"Point","coordinates":[85.50969437325355,21.05484294891359]},"properties":{"id":80,"block_name":"Kankadahad","DIST_NAME":"DHENKANAL"}},
{"type":"Feature","geometry":{"type":"Point","coordinates":[83.82329545425156,20.624199867248542]},"properties":{"id":55,"block_name":"Kantamal","DIST_NAME":"BOUDH"}},
{"type":"Feature","geometry":{"type":"Point","coordinates":[86.003276440094,20.28371143341067]},"properties":{"id":62,"block_name":"Kantapada","DIST_NAME":"CUTTACK"}},
{"type":"Feature","geometry":{"type":"Point","coordinates":[86.40333615078723,21.457025527954066]},"properties":{"id":225,"block_name":"Kaptipada","DIST_NAME":"MAYURBHANJ"}},
{"type":"Feature","geometry":{"type":"Point","coordinates":[86.07189253151839,21.78175926208498]},"properties":{"id":234,"block_name":"Karanjia","DIST_NAME":"MAYURBHANJ"}},
{"type":"Feature","geometry":{"type":"Point","coordinates":[83.46289542635682,20.329386711120627]},"properties":{"id":136,"block_name":"Karlamunda","DIST_NAME":"KALAHANDI"}},
{"type":"Feature","geometry":{"type":"Point","coordinates":[83.0943576987586,19.301486968994112]},"properties":{"id":275,"block_name":"Kashipur","DIST_NAME":"RAYAGADA"}},
{"type":"Feature","geometry":{"type":"Point","coordinates":[83.88528230297584,18.9034652709961]},"properties":{"id":81,"block_name":"Kasinagar","DIST_NAME":"GAJAPATI"}},
{"type":"Feature","geometry":{"type":"Point","coordinates":[86.45601590126645,20.536992073059093]},"properties":{"id":159,"block_name":"Kendrapara","DIST_NAME":"KENDRAPARA"}},
{"type":"Feature","geometry":{"type":"Point","coordinates":[85.55773259599303,21.70640373229981]},"properties":{"id":168,"block_name":"Kendujhar","DIST_NAME":"KEONJHAR"}},
{"type":"Feature","geometry":{"type":"Point","coordinates":[83.2282898604465,20.16748523712159]},"properties":{"id":135,"block_name":"Kesinga","DIST_NAME":"KALAHANDI"}},
{"type":"Feature","geometry":{"type":"Point","coordinates":[86.46114418762747,21.23874759674073]},"properties":{"id":19,"block_name":"Khaira","DIST_NAME":"BALESWAR"}},
{"type":"Feature","geometry":{"type":"Point","coordinates":[82.28239593505859,18.49425983428955]},"properties":{"id":207,"block_name":"Khairput","DIST_NAME":"MALKANGIRI"}},
{"type":"Feature","geometry":{"type":"Point","coordinates":[84.3442436889042,20.51213550567627]},"properties":{"id":151,"block_name":"Khajuripada","DIST_NAME":"KANDHAMAL"}},
{"type":"Feature","geometry":{"type":"Point","coordinates":[85.11567367457567,19.64379596710203]},"properties":{"id":95,"block_name":"Khallikote","DIST_NAME":"GANJAM"}},
{"type":"Feature","geometry":{"type":"Point","coordinates":[85.11832428367771,20.295865058898947]},"properties":{"id":251,"block_name":"Khandapada","DIST_NAME":"NAYAGARH"}},
{"type":"Feature","geometry":{"type":"Point","coordinates":[82.83870052895212,20.75813102722165]},"properties":{"id":48,"block_name":"Khaprakhol","DIST_NAME":"BALANGIR"}},
{"type":"Feature","geometry":{"type":"Point","coordinates":[82.74382833265554,20.25755500793455]},"properties":{"id":257,"block_name":"Khariar","DIST_NAME":"NUAPADA"}},
{"type":"Feature","geometry":{"type":"Point","coordinates":[86.5848222804975,21.716743469238278]},"properties":{"id":222,"block_name":"Khunta","DIST_NAME":"MAYURBHANJ"}},
{"type":"Feature","geometry":{"type":"Point","coordinates":[84.15454704208034,21.93680477142336]},"properties":{"id":132,"block_name":"Kirimira","DIST_NAME":"JHARSUGUDA"}},
{"type":"Feature","geometry":{"type":"Point","coordinates":[84.59457994773811,20.962934494018572]},"properties":{"id":7,"block_name":"Kishorenagar","DIST_NAME":"ANGUL"}},
{"type":"Feature","geometry":{"type":"Point","coordinates":[85.01346053217705,19.68736839294433]},"properties":{"id":94,"block_name":"Kodala","DIST_NAME":"GANJAM"}},
{"type":"Feature","geometry":{"type":"Point","coordinates":[85.10388374953973,21.959825515747102]},"properties":{"id":314,"block_name":"Koida","DIST_NAME":"SUNDARGARH"}},
{"type":"Feature","geometry":{"type":"Point","coordinates":[82.67397523843607,19.652556419372573]},"properties":{"id":145,"block_name":"Kokasara","DIST_NAME":"KALAHANDI"}},
{"type":"Feature","geometry":{"type":"Point","coordinates":[84.19705357851527,21.802350997924815]},"properties":{"id":130,"block_name":"Kolabira","DIST_NAME":"JHARSUGUDA"}},
{"type":"Feature","geometry":{"type":"Point","coordinates":[86.68555896090103,22.052222251892086]},"properties":{"id":217,"block_name":"Koliana","DIST_NAME":"MAYURBHANJ"}},
{"type":"Feature","geometry":{"type":"Point","coordinates":[83.52409937661608,19.248064041137695]},"properties":{"id":273,"block_name":"Kolnara","DIST_NAME":"RAYAGADA"}},
{"type":"Feature","geometry":{"type":"Point","coordinates":[82.53098378665209,20.572896957397493]},"properties":{"id":258,"block_name":"Komna","DIST_NAME":"NUAPADA"}},
{"type":"Feature","geometry":{"type":"Point","coordinates":[82.70414571445417,18.810224533081048]},"properties":{"id":191,"block_name":"Koraput","DIST_NAME":"KORAPUT"}},
{"type":"Feature","geometry":{"type":"Point","coordinates":[86.21124611695605,20.960097312927264]},"properties":{"id":122,"block_name":"Korei","DIST_NAME":"JAJPUR"}},
{"type":"Feature","geometry":{"type":"Point","coordinates":[81.97000434156625,18.27292251586913]},"properties":{"id":209,"block_name":"Korkunda","DIST_NAME":"MALKANGIRI"}},
{"type":"Feature","geometry":{"type":"Point","coordinates":[82.2720530151492,19.28706645965578]},"properties":{"id":242,"block_name":"Kosagumuda","DIST_NAME":"NAWARANGAPUR"}},
{"type":"Feature","geometry":{"type":"Point","coordinates":[83.80942922798948,19.818732261657726]},"properties":{"id":152,"block_name":"Kotagarh","DIST_NAME":"KANDHAMAL"}},
{"type":"Feature","geometry":{"type":"Point","coordinates":[82.32583992228368,19.069498062133796]},"properties":{"id":201,"block_name":"Kotpad","DIST_NAME":"KORAPUT"}},
{"type":"Feature","geometry":{"type":"Point","coordinates":[85.37076783920844,19.675255775451674]},"properties":{"id":267,"block_name":"Krushnaprasad","DIST_NAME":"PURI"}},
{"type":"Feature","geometry":{"type":"Point","coordinates":[84.76408965411203,22.306732177734368]},"properties":{"id":307,"block_name":"Kuanrmunda","DIST_NAME":"SUNDARGARH"}},
{"type":"Feature","geometry":{"type":"Point","coordinates":[84.42671811260936,21.774847030639624]},"properties":{"id":287,"block_name":"Kuchinda","DIST_NAME":"SAMBALPUR"}},
{"type":"Feature","geometry":{"type":"Point","coordinates":[82.2275,18.2023]},"properties":{"id":208,"block_name":"Kudumulgumma","DIST_NAME":"MALKANGIRI"}},
{"type":"Feature","geometry":{"type":"Point","coordinates":[86.54666755293644,20.282958030700673]},"properties":{"id":117,"block_name":"Kujang","DIST_NAME":"JAGATSINGHPUR"}},
{"type":"Feature","geometry":{"type":"Point","coordinates":[84.71687865593177,19.32138442993167]},"properties":{"id":98,"block_name":"Kukudakhandi","DIST_NAME":"GANJAM"}},
{"type":"Feature","geometry":{"type":"Point","coordinates":[82.3556255004818,18.907689094543425]},"properties":{"id":202,"block_name":"Kundra","DIST_NAME":"KORAPUT"}},
{"type":"Feature","geometry":{"type":"Point","coordinates":[86.10568319324159,22.138266563415545]},"properties":{"id":229,"block_name":"Kusumi","DIST_NAME":"MAYURBHANJ"}},
{"type":"Feature","geometry":{"type":"Point","coordinates":[84.41762360280211,22.26259326934813]},"properties":{"id":305,"block_name":"Kutra","DIST_NAME":"SUNDARGARH"}},
{"type":"Feature","geometry":{"type":"Point","coordinates":[85.09546074665097,21.80105686187747]},"properties":{"id":312,"block_name":"Lahunipara","DIST_NAME":"SUNDARGARH"}},
{"type":"Feature","geometry":{"type":"Point","coordinates":[84.29245492998649,21.9314374923706]},"properties":{"id":131,"block_name":"Laikera","DIST_NAME":"JHARSUGUDA"}},
{"type":"Feature","geometry":{"type":"Point","coordinates":[83.80241017834904,21.719479560852044]},"properties":{"id":133,"block_name":"Lakhanpur","DIST_NAME":"JHARSUGUDA"}},
{"type":"Feature","geometry":{"type":"Point","coordinates":[83.08147040997832,18.992318153381305]},"properties":{"id":198,"block_name":"Lakshmipur","DIST_NAME":"KORAPUT"}},
{"type":"Feature","geometry":{"type":"Point","coordinates":[82.62331710906196,18.61694145202634]},"properties":{"id":192,"block_name":"Lamptaput","DIST_NAME":"KORAPUT"}},
{"type":"Feature","geometry":{"type":"Point","coordinates":[83.3709805206035,19.8189115524292]},"properties":{"id":139,"block_name":"Lanjigarh","DIST_NAME":"KALAHANDI"}},
{"type":"Feature","geometry":{"type":"Point","coordinates":[84.88201682565283,22.135224342346174]},"properties":{"id":310,"block_name":"Lathikata","DIST_NAME":"SUNDARGARH"}},
{"type":"Feature","geometry":{"type":"Point","coordinates":[83.78771788505148,22.116638183593764]},"properties":{"id":299,"block_name":"Lephripara","DIST_NAME":"SUNDARGARH"}},
{"type":"Feature","geometry":{"type":"Point","coordinates":[83.37686120937254,20.83482170104979]},"properties":{"id":45,"block_name":"Loisinga","DIST_NAME":"BALANGIR"}},
{"type":"Feature","geometry":{"type":"Point","coordinates":[83.598437616364,20.2162675857544]},"properties":{"id":137,"block_name":"Madanpur-Rampur","DIST_NAME":"KALAHANDI"}},
{"type":"Feature","geometry":{"type":"Point","coordinates":[86.62114705405732,20.409423828124975]},"properties":{"id":162,"block_name":"Mahakalapada","DIST_NAME":"KENDRAPARA"}},
{"type":"Feature","geometry":{"type":"Point","coordinates":[86.18890181740562,20.57160854339596]},"properties":{"id":63,"block_name":"Mahanga","DIST_NAME":"CUTTACK"}},
{"type":"Feature","geometry":{"type":"Point","coordinates":[81.97406892552647,18.423076629638658]},"properties":{"id":205,"block_name":"Malkangiri","DIST_NAME":"MALKANGIRI"}},
{"type":"Feature","geometry":{"type":"Point","coordinates":[83.99648602427325,21.345373153686555]},"properties":{"id":286,"block_name":"Maneswar","DIST_NAME":"SAMBALPUR"}},
{"type":"Feature","geometry":{"type":"Point","coordinates":[86.45392549689555,20.410814285278303]},"properties":{"id":161,"block_name":"Marsaghai","DIST_NAME":"KENDRAPARA"}},
{"type":"Feature","geometry":{"type":"Point","coordinates":[82.10979611986912,18.57934665679929]},"properties":{"id":206,"block_name":"Mathili","DIST_NAME":"MALKANGIRI"}},
{"type":"Feature","geometry":{"type":"Point","coordinates":[84.17758095199997,19.436460494995114]},"properties":{"id":87,"block_name":"Mohana","DIST_NAME":"GAJAPATI"}},
{"type":"Feature","geometry":{"type":"Point","coordinates":[83.53457712653687,19.761770248413093]},"properties":{"id":281,"block_name":"Muniguda","DIST_NAME":"RAYAGADA"}},
{"type":"Feature","geometry":{"type":"Point","coordinates":[83.01852276310478,20.392714500427267]},"properties":{"id":52,"block_name":"Muribahal","DIST_NAME":"BALANGIR"}},
{"type":"Feature","geometry":{"type":"Point","coordinates":[86.93830453051157,21.849748611450206]},"properties":{"id":215,"block_name":"Muruda","DIST_NAME":"MAYURBHANJ"}},
{"type":"Feature","geometry":{"type":"Point","coordinates":[84.53551146314193,21.228551864624016]},"properties":{"id":291,"block_name":"Naktideul","DIST_NAME":"SAMBALPUR"}},
{"type":"Feature","geometry":{"type":"Point","coordinates":[82.66926525293852,19.22615814208987]},"properties":{"id":239,"block_name":"Nandahandi","DIST_NAME":"NAWARANGAPUR"}},
{"type":"Feature","geometry":{"type":"Point","coordinates":[82.67369657205353,18.435242652893038]},"properties":{"id":195,"block_name":"Nandapur","DIST_NAME":"KORAPUT"}},
{"type":"Feature","geometry":{"type":"Point","coordinates":[85.09734459996807,20.49502277374268]},"properties":{"id":66,"block_name":"Narasinghpur","DIST_NAME":"CUTTACK"}},
{"type":"Feature","geometry":{"type":"Point","coordinates":[83.11539555201952,18.844508171081557]},"properties":{"id":197,"block_name":"Narayanpatna","DIST_NAME":"KORAPUT"}},
{"type":"Feature","geometry":{"type":"Point","coordinates":[83.38386860755078,20.110413551330577]},"properties":{"id":138,"block_name":"Narla","DIST_NAME":"KALAHANDI"}},
{"type":"Feature","geometry":{"type":"Point","coordinates":[86.20465120718445,20.105467796325705]},"properties":{"id":115,"block_name":"Naugaon","DIST_NAME":"JAGATSINGHPUR"}},
{"type":"Feature","geometry":{"type":"Point","coordinates":[82.4500227986007,19.256482124328613]},"properties":{"id":238,"block_name":"Nawarangpur","DIST_NAME":"NAWARANGAPUR"}},
{"type":"Feature","geometry":{"type":"Point","coordinates":[85.1392833842755,20.136245727539084]},"properties":{"id":252,"block_name":"Nayagarh","DIST_NAME":"NAYAGARH"}},
{"type":"Feature","geometry":{"type":"Point","coordinates":[86.0972511277899,20.144966125488295]},"properties":{"id":64,"block_name":"Niali","DIST_NAME":"CUTTACK"}},
{"type":"Feature","geometry":{"type":"Point","coordinates":[86.69164170382683,21.496772766113274]},"properties":{"id":15,"block_name":"Nilagiri","DIST_NAME":"BALESWAR"}},
{"type":"Feature","geometry":{"type":"Point","coordinates":[86.00007856957163,20.053857803344712]},"properties":{"id":268,"block_name":"Nimapada","DIST_NAME":"PURI"}},
{"type":"Feature","geometry":{"type":"Point","coordinates":[86.19669358573094,20.441249847412102]},"properties":{"id":65,"block_name":"Nischintakoili","DIST_NAME":"CUTTACK"}},
{"type":"Feature","geometry":{"type":"Point","coordinates":[84.03741697311402,19.18067836761476]},"properties":{"id":85,"block_name":"Nuagada","DIST_NAME":"GAJAPATI"}},
{"type":"Feature","geometry":{"type":"Point","coordinates":[84.95340312632473,20.184209823608413]},"properties":{"id":253,"block_name":"Nuagaon","DIST_NAME":"NAYAGARH"}},
{"type":"Feature","geometry":{"type":"Point","coordinates":[84.9376833322574,22.380502700805664]},"properties":{"id":308,"block_name":"Nuagaon","DIST_NAME":"SUNDARGARH"}},
{"type":"Feature","geometry":{"type":"Point","coordinates":[82.58774527690093,20.864846229553258]},"properties":{"id":259,"block_name":"Nuapada","DIST_NAME":"NUAPADA"}},
{"type":"Feature","geometry":{"type":"Point","coordinates":[85.03360971761091,19.99745559692382]},"properties":{"id":254,"block_name":"Odagaon","DIST_NAME":"NAYAGARH"}},
{"type":"Feature","geometry":{"type":"Point","coordinates":[85.52091696551076,20.697613716125474]},"properties":{"id":75,"block_name":"Odapada","DIST_NAME":"DHENKANAL"}},
{"type":"Feature","geometry":{"type":"Point","coordinates":[86.54901867138945,21.37076854705814]},"properties":{"id":20,"block_name":"Oupada","DIST_NAME":"BALESWAR"}},
{"type":"Feature","geometry":{"type":"Point","coordinates":[83.929404152525,19.298308372497566]},"properties":{"id":277,"block_name":"Padmapur","DIST_NAME":"RAYAGADA"}},
{"type":"Feature","geometry":{"type":"Point","coordinates":[82.84958309947208,20.94588565826413]},"properties":{"id":31,"block_name":"Paikamal","DIST_NAME":"BARAGARH"}},
{"type":"Feature","geometry":{"type":"Point","coordinates":[85.15141684859672,21.41157817840579]},"properties":{"id":8,"block_name":"Palalahada","DIST_NAME":"ANGUL"}},
{"type":"Feature","geometry":{"type":"Point","coordinates":[82.4995292113708,19.428811073303223]},"properties":{"id":241,"block_name":"Paparahandi","DIST_NAME":"NAWARANGAPUR"}},
{"type":"Feature","geometry":{"type":"Point","coordinates":[85.3587185165878,20.935621261596662]},"properties":{"id":79,"block_name":"Parajang","DIST_NAME":"DHENKANAL"}},
{"type":"Feature","geometry":{"type":"Point","coordinates":[84.2486725860049,18.830319404602037]},"properties":{"id":82,"block_name":"Parlakhemundi(Gosani)","DIST_NAME":"GAJAPATI"}},
{"type":"Feature","geometry":{"type":"Point","coordinates":[85.85135784218839,21.642829895019524]},"properties":{"id":171,"block_name":"Patana","DIST_NAME":"KEONJHAR"}},
{"type":"Feature","geometry":{"type":"Point","coordinates":[83.11201138275958,20.76069831848141]},"properties":{"id":46,"block_name":"Patnagarh","DIST_NAME":"BALANGIR"}},
{"type":"Feature","geometry":{"type":"Point","coordinates":[84.51017912411386,19.07756328582763]},"properties":{"id":100,"block_name":"Patrapur","DIST_NAME":"GANJAM"}},
{"type":"Feature","geometry":{"type":"Point","coordinates":[86.6093368448311,20.561361312866204]},"properties":{"id":164,"block_name":"Pattamundai","DIST_NAME":"KENDRAPARA"}},
{"type":"Feature","geometry":{"type":"Point","coordinates":[83.92478703576434,20.413105010986357]},"properties":{"id":154,"block_name":"Phiringia","DIST_NAME":"KANDHAMAL"}},
{"type":"Feature","geometry":{"type":"Point","coordinates":[84.1416043007728,20.463676452636683]},"properties":{"id":155,"block_name":"Phulbani","DIST_NAME":"KANDHAMAL"}},
{"type":"Feature","geometry":{"type":"Point","coordinates":[85.82996948664481,20.09072780609128]},"properties":{"id":269,"block_name":"Pipili","DIST_NAME":"PURI"}},
{"type":"Feature","geometry":{"type":"Point","coordinates":[81.54908003092159,18.06638908386228]},"properties":{"id":211,"block_name":"Podia","DIST_NAME":"MALKANGIRI"}},
{"type":"Feature","geometry":{"type":"Point","coordinates":[84.8759960178526,19.739241600036628]},"properties":{"id":93,"block_name":"Polasara","DIST_NAME":"GANJAM"}},
{"type":"Feature","geometry":{"type":"Point","coordinates":[82.97329934127846,18.542102813720696]},"properties":{"id":193,"block_name":"Pottangi","DIST_NAME":"KORAPUT"}},
{"type":"Feature","geometry":{"type":"Point","coordinates":[83.58946229142754,20.721673965454094]},"properties":{"id":41,"block_name":"Puintala","DIST_NAME":"BALANGIR"}},
{"type":"Feature","geometry":{"type":"Point","coordinates":[85.80289123245707,19.86993408203127]},"properties":{"id":270,"block_name":"Puri","DIST_NAME":"PURI"}},
{"type":"Feature","geometry":{"type":"Point","coordinates":[84.87187134783676,19.50481510162353]},"properties":{"id":91,"block_name":"Purusottampur","DIST_NAME":"GANJAM"}},
{"type":"Feature","geometry":{"type":"Point","coordinates":[84.22360596265425,19.180822372436516]},"properties":{"id":86,"block_name":"R. Udaygiri","DIST_NAME":"GAJAPATI"}},
{"type":"Feature","geometry":{"type":"Point","coordinates":[86.20222337253558,20.324211120605487]},"properties":{"id":113,"block_name":"Raghunathpur","DIST_NAME":"JAGATSINGHPUR"}},
{"type":"Feature","geometry":{"type":"Point","coordinates":[82.02487101797331,19.930891036987298]},"properties":{"id":245,"block_name":"Raighar","DIST_NAME":"NAWARANGAPUR"}},
{"type":"Feature","geometry":{"type":"Point","coordinates":[84.2505188058663,20.004434585571254]},"properties":{"id":156,"block_name":"Raikia","DIST_NAME":"KANDHAMAL"}},
{"type":"Feature","geometry":{"type":"Point","coordinates":[84.19722388986733,21.1014280319214]},"properties":{"id":290,"block_name":"Rairakhol","DIST_NAME":"SAMBALPUR"}},
{"type":"Feature","geometry":{"type":"Point","coordinates":[86.28769017687287,22.32129096984864]},"properties":{"id":228,"block_name":"Rairangpur","DIST_NAME":"MAYURBHANJ"}},
{"type":"Feature","geometry":{"type":"Point","coordinates":[84.6086671548731,22.17581367492673]},"properties":{"id":306,"block_name":"Rajagangapur","DIST_NAME":"SUNDARGARH"}},
{"type":"Feature","geometry":{"type":"Point","coordinates":[83.09046622516512,20.991695404052713]},"properties":{"id":30,"block_name":"Padmapur","DIST_NAME":"BARAGARH"}},
{"type":"Feature","geometry":{"type":"Point","coordinates":[86.72409402547864,20.706040382385275]},"properties":{"id":167,"block_name":"Rajkanika","DIST_NAME":"KENDRAPARA"}},
{"type":"Feature","geometry":{"type":"Point","coordinates":[86.86355130491587,20.643334388732928]},"properties":{"id":166,"block_name":"Rajnagar","DIST_NAME":"KENDRAPARA"}},
{"type":"Feature","geometry":{"type":"Point","coordinates":[83.73207496213264,19.20147037506105]},"properties":{"id":279,"block_name":"Ramanguda","DIST_NAME":"RAYAGADA"}},
{"type":"Feature","geometry":{"type":"Point","coordinates":[85.2840662914001,20.04646492004393]},"properties":{"id":255,"block_name":"Ranapur","DIST_NAME":"NAYAGARH"}},
{"type":"Feature","geometry":{"type":"Point","coordinates":[84.84476118809177,19.26005744934084]},"properties":{"id":97,"block_name":"Rangeilunda","DIST_NAME":"GANJAM"}},
{"type":"Feature","geometry":{"type":"Point","coordinates":[85.71811604815464,22.0200204849243]},"properties":{"id":237,"block_name":"Raruan","DIST_NAME":"MAYURBHANJ"}},
{"type":"Feature","geometry":{"type":"Point","coordinates":[87.03345696891361,21.763598442077637]},"properties":{"id":216,"block_name":"Rasagovindpur","DIST_NAME":"MAYURBHANJ"}},
{"type":"Feature","geometry":{"type":"Point","coordinates":[86.18109114273733,20.805177688598633]},"properties":{"id":125,"block_name":"Rasulpur","DIST_NAME":"JAJPUR"}},
{"type":"Feature","geometry":{"type":"Point","coordinates":[84.22235923645988,18.96569252014161]},"properties":{"id":83,"block_name":"Rayagada","DIST_NAME":"GAJAPATI"}},
{"type":"Feature","geometry":{"type":"Point","coordinates":[83.39091904288696,19.12590885162352]},"properties":{"id":272,"block_name":"Rayagada","DIST_NAME":"RAYAGADA"}},
{"type":"Feature","geometry":{"type":"Point","coordinates":[84.86170132462058,21.312728881835945]},"properties":{"id":72,"block_name":"Reamal","DIST_NAME":"DEOGARH"}},
{"type":"Feature","geometry":{"type":"Point","coordinates":[86.84766240151512,21.462469100952166]},"properties":{"id":14,"block_name":"Remuna","DIST_NAME":"BALESWAR"}},
{"type":"Feature","geometry":{"type":"Point","coordinates":[84.0924897484181,21.65770244598385]},"properties":{"id":285,"block_name":"Rengali","DIST_NAME":"SAMBALPUR"}},
{"type":"Feature","geometry":{"type":"Point","coordinates":[85.96917799218255,21.68490123748778]},"properties":{"id":172,"block_name":"Saharapada","DIST_NAME":"KEONJHAR"}},
{"type":"Feature","geometry":{"type":"Point","coordinates":[83.30300209541484,20.45430755615233]},"properties":{"id":53,"block_name":"Saintala","DIST_NAME":"BALANGIR"}},
{"type":"Feature","geometry":{"type":"Point","coordinates":[86.04068449831982,20.490899085998564]},"properties":{"id":67,"block_name":"Salepur","DIST_NAME":"CUTTACK"}},
{"type":"Feature","geometry":{"type":"Point","coordinates":[84.54723846230041,19.450242042541525]},"properties":{"id":101,"block_name":"Sanakhemundi","DIST_NAME":"GANJAM"}},
{"type":"Feature","geometry":{"type":"Point","coordinates":[86.54376066466338,22.240864753723145]},"properties":{"id":218,"block_name":"Saraskana","DIST_NAME":"MAYURBHANJ"}},
{"type":"Feature","geometry":{"type":"Point","coordinates":[85.82968189496029,19.953094482421896]},"properties":{"id":271,"block_name":"Satyabadi","DIST_NAME":"PURI"}},
{"type":"Feature","geometry":{"type":"Point","coordinates":[84.64430205296111,19.512248992919936]},"properties":{"id":109,"block_name":"Seragad","DIST_NAME":"GANJAM"}},
{"type":"Feature","geometry":{"type":"Point","coordinates":[86.55329145537375,21.854279518127477]},"properties":{"id":212,"block_name":"Shamakhunta","DIST_NAME":"MAYURBHANJ"}},
{"type":"Feature","geometry":{"type":"Point","coordinates":[82.87279773535491,18.617019653320312]},"properties":{"id":199,"block_name":"Similiguda","DIST_NAME":"KORAPUT"}},
{"type":"Feature","geometry":{"type":"Point","coordinates":[86.61455926618689,21.15017986297606]},"properties":{"id":18,"block_name":"Simulia","DIST_NAME":"BALESWAR"}},
{"type":"Feature","geometry":{"type":"Point","coordinates":[82.60846035689067,20.10409641265868]},"properties":{"id":260,"block_name":"Sinapalli","DIST_NAME":"NUAPADA"}},
{"type":"Feature","geometry":{"type":"Point","coordinates":[83.35060936991593,21.250627517700185]},"properties":{"id":32,"block_name":"Sohela","DIST_NAME":"BARAGARH"}},
{"type":"Feature","geometry":{"type":"Point","coordinates":[83.7448860478653,20.870311737060547]},"properties":{"id":292,"block_name":"Sonepur","DIST_NAME":"SONEPUR"}},
{"type":"Feature","geometry":{"type":"Point","coordinates":[84.36414360319449,19.72767829895016]},"properties":{"id":110,"block_name":"Sorada","DIST_NAME":"GANJAM"}},
{"type":"Feature","geometry":{"type":"Point","coordinates":[86.6697197861052,21.285915374755852]},"properties":{"id":16,"block_name":"Soro","DIST_NAME":"BALESWAR"}},
{"type":"Feature","geometry":{"type":"Point","coordinates":[84.12603849712022,22.243143081665053]},"properties":{"id":302,"block_name":"Subdega","DIST_NAME":"SUNDARGARH"}},
{"type":"Feature","geometry":{"type":"Point","coordinates":[85.88183093146196,20.9929971694946]},"properties":{"id":124,"block_name":"Sukinda","DIST_NAME":"JAJPUR"}},
{"type":"Feature","geometry":{"type":"Point","coordinates":[85.87993793144913,21.899038314819332]},"properties":{"id":236,"block_name":"Sukruli","DIST_NAME":"MAYURBHANJ"}},
{"type":"Feature","geometry":{"type":"Point","coordinates":[86.90895529716244,22.027955055236816]},"properties":{"id":219,"block_name":"Suliapada","DIST_NAME":"MAYURBHANJ"}},
{"type":"Feature","geometry":{"type":"Point","coordinates":[84.1303898877111,22.04733943939207]},"properties":{"id":301,"block_name":"Sundargarh","DIST_NAME":"SUNDARGARH"}},
{"type":"Feature","geometry":{"type":"Point","coordinates":[85.12602611478744,20.95340728759764]},"properties":{"id":4,"block_name":"Talcher","DIST_NAME":"ANGUL"}},
{"type":"Feature","geometry":{"type":"Point","coordinates":[83.952802204899,22.06544876098632]},"properties":{"id":300,"block_name":"Tangarapali","DIST_NAME":"SUNDARGARH"}},
{"type":"Feature","geometry":{"type":"Point","coordinates":[85.9497581930664,20.59998703002929]},"properties":{"id":68,"block_name":"Tangi-Choudwar","DIST_NAME":"CUTTACK"}},
{"type":"Feature","geometry":{"type":"Point","coordinates":[83.70498292971497,20.70362377166747]},"properties":{"id":294,"block_name":"Tarbha","DIST_NAME":"SONEPUR"}},
{"type":"Feature","geometry":{"type":"Point","coordinates":[85.43278535579351,21.29811096191404]},"properties":{"id":170,"block_name":"Telkoi","DIST_NAME":"KEONJHAR"}},
{"type":"Feature","geometry":{"type":"Point","coordinates":[82.7591197369492,19.29889011383058]},"properties":{"id":240,"block_name":"Tentulikhunti","DIST_NAME":"NAWARANGAPUR"}},
{"type":"Feature","geometry":{"type":"Point","coordinates":[86.21641914434895,21.481060028076186]},"properties":{"id":235,"block_name":"Thakurmunda","DIST_NAME":"MAYURBHANJ"}},
{"type":"Feature","geometry":{"type":"Point","coordinates":[82.92832497482519,19.49290943145753]},"properties":{"id":140,"block_name":"Thuamul-Rampur","DIST_NAME":"KALAHANDI"}},
{"type":"Feature","geometry":{"type":"Point","coordinates":[85.49799548458645,20.466178894042955]},"properties":{"id":69,"block_name":"Tigiria","DIST_NAME":"CUTTACK"}},
{"type":"Feature","geometry":{"type":"Point","coordinates":[86.67507790590469,20.9487714767456]},"properties":{"id":39,"block_name":"Tihidi","DIST_NAME":"BHADRAK"}},
{"type":"Feature","geometry":{"type":"Point","coordinates":[84.2598233736287,20.2322301864624]},"properties":{"id":157,"block_name":"Tikabali","DIST_NAME":"KANDHAMAL"}},
{"type":"Feature","geometry":{"type":"Point","coordinates":[84.62348387227784,21.561978340148915]},"properties":{"id":71,"block_name":"Tileibani","DIST_NAME":"DEOGARH"}},
{"type":"Feature","geometry":{"type":"Point","coordinates":[86.03431165796505,22.482586860656752]},"properties":{"id":232,"block_name":"Tiring","DIST_NAME":"MAYURBHANJ"}},
{"type":"Feature","geometry":{"type":"Point","coordinates":[86.30749339618902,20.273851394653335]},"properties":{"id":116,"block_name":"Tirtol","DIST_NAME":"JAGATSINGHPUR"}},
{"type":"Feature","geometry":{"type":"Point","coordinates":[83.2229958447543,20.297395706176758]},"properties":{"id":49,"block_name":"Titilagarh","DIST_NAME":"BALANGIR"}},
{"type":"Feature","geometry":{"type":"Point","coordinates":[83.69562589060268,19.942645072937005]},"properties":{"id":158,"block_name":"Tumudibandha","DIST_NAME":"KANDHAMAL"}},
{"type":"Feature","geometry":{"type":"Point","coordinates":[82.81387717223436,20.495434761047395]},"properties":{"id":50,"block_name":"Tureikela","DIST_NAME":"BALANGIR"}},
{"type":"Feature","geometry":{"type":"Point","coordinates":[86.470098248906,21.628660202026396]},"properties":{"id":224,"block_name":"Udala","DIST_NAME":"MAYURBHANJ"}},
{"type":"Feature","geometry":{"type":"Point","coordinates":[83.90455554142474,21.00870990753173]},"properties":{"id":297,"block_name":"Ulunda","DIST_NAME":"SONEPUR"}},
{"type":"Feature","geometry":{"type":"Point","coordinates":[82.16682478182581,19.712932586669922]},"properties":{"id":244,"block_name":"Umarkote","DIST_NAME":"NAWARANGAPUR"}},
{"type":"Feature","geometry":{"type":"Point","coordinates":[85.92398408588615,20.25057983398434]},"properties":{"id":181,"block_name":"Balianta","DIST_NAME":"KHURDA"}},
{"type":"Feature","geometry":{"type":"Point","coordinates":[85.99377405229744,20.16012573242189]},"properties":{"id":182,"block_name":"Balipatna","DIST_NAME":"KHURDA"}},
{"type":"Feature","geometry":{"type":"Point","coordinates":[85.13392191254692,19.834054946899418]},"properties":{"id":185,"block_name":"Banapur","DIST_NAME":"KHURDA"}},
{"type":"Feature","geometry":{"type":"Point","coordinates":[85.4864116224813,20.1651792526245]},"properties":{"id":186,"block_name":"Begunia","DIST_NAME":"KHURDA"}},
{"type":"Feature","geometry":{"type":"Point","coordinates":[85.77413121027209,20.296305656433134]},"properties":{"id":183,"block_name":"Bhubaneswar","DIST_NAME":"KHURDA"}},
{"type":"Feature","geometry":{"type":"Point","coordinates":[85.30992137024334,20.19833183288572]},"properties":{"id":187,"block_name":"Bolagad","DIST_NAME":"KHURDA"}},
{"type":"Feature","geometry":{"type":"Point","coordinates":[85.27558317234673,19.793300628662127]},"properties":{"id":188,"block_name":"Chilika","DIST_NAME":"KHURDA"}},
{"type":"Feature","geometry":{"type":"Point","coordinates":[85.6967922825967,20.197515487670916]},"properties":{"id":184,"block_name":"Jatani","DIST_NAME":"KHURDA"}},
{"type":"Feature","geometry":{"type":"Point","coordinates":[85.60787226380302,20.153182029724128]},"properties":{"id":189,"block_name":"Khordha","DIST_NAME":"KHURDA"}},
{"type":"Feature","geometry":{"type":"Point","coordinates":[85.4868543455728,19.96966838836668]},"properties":{"id":190,"block_name":"Tangi","DIST_NAME":"KHURDA"}}
]}